[
  {
    "id":1,
    "principal":"Río Balsas",
    "secundario":"Río Sena",
    "referencia":"",
    "colonia":"Cuauhtémoc",
    "delegacion":"Cuauhtémoc",
    "longitud":-99.16848,
    "latitud":19.43293,
    "nombre":"Río Balsas-Río Sena"
  },
  {
    "id":2,
    "principal":"Río Guadalquivir",
    "secundario":"Río Balsas",
    "referencia":"",
    "colonia":"Cuauhtémoc",
    "delegacion":"Cuauhtémoc",
    "longitud":-99.17151,
    "latitud":19.43159,
    "nombre":"Río Guadalquivir-Río Balsas"
  },
  {
    "id":3,
    "principal":"Paseo de la Reforma",
    "secundario":"Avenida Insurgentes",
    "referencia":"",
    "colonia":"Tabacalera",
    "delegacion":"Cuauhtémoc",
    "longitud":-99.15875,
    "latitud":19.43166,
    "nombre":"Paseo de la Reforma-Avenida Insurgentes"
  },
  {
    "id":4,
    "principal":"Río Nilo",
    "secundario":"Río Panuco",
    "referencia":"",
    "colonia":"Cuauhtémoc",
    "delegacion":"Cuauhtémoc",
    "longitud":-99.17169,
    "latitud":19.42849,
    "nombre":"Río Nilo-Río Panuco"
  },
  {
    "id":5,
    "principal":"Río Panuco",
    "secundario":"Río Tiber",
    "referencia":"",
    "colonia":"Cuauhtémoc",
    "delegacion":"Cuauhtémoc",
    "longitud":-99.16945,
    "latitud":19.4298,
    "nombre":"Río Panuco-Río Tiber"
  },
  {
    "id":6,
    "principal":"Río Panuco",
    "secundario":"Río Sena",
    "referencia":"",
    "colonia":"Cuauhtémoc",
    "delegacion":"Cuauhtémoc",
    "longitud":-99.16699,
    "latitud":19.43096,
    "nombre":"Río Panuco-Río Sena"
  },
  {
    "id":7,
    "principal":"Río Elba",
    "secundario":"Río Lerma",
    "referencia":"",
    "colonia":"Cuauhtémoc",
    "delegacion":"Cuauhtémoc",
    "longitud":-99.17515,
    "latitud":19.42536,
    "nombre":"Río Elba-Río Lerma"
  },
  {
    "id":8,
    "principal":"Paseo de la Reforma",
    "secundario":"General Prim",
    "referencia":"",
    "colonia":"Tabacalera",
    "delegacion":"Cuauhtémoc",
    "longitud":-99.15815,
    "latitud":19.43126,
    "nombre":"Paseo de la Reforma-General Prim"
  },
  {
    "id":9,
    "principal":"Río Guadalquivir",
    "secundario":"Río Lerma",
    "referencia":"",
    "colonia":"Cuauhtémoc",
    "delegacion":"Cuauhtémoc",
    "longitud":-99.17001,
    "latitud":19.42818,
    "nombre":"Río Guadalquivir-Río Lerma"
  },
  {
    "id":10,
    "principal":"Paseo de la Reforma",
    "secundario":"Ramírez",
    "referencia":"",
    "colonia":"Tabacalera",
    "delegacion":"Cuauhtémoc",
    "longitud":-99.15514,
    "latitud":19.43343,
    "nombre":"Paseo de la Reforma-Ramírez"
  },
  {
    "id":11,
    "principal":"Río Amazonas",
    "secundario":"Río Lerma",
    "referencia":"",
    "colonia":"Cuauhtémoc",
    "delegacion":"Cuauhtémoc",
    "longitud":-99.16355,
    "latitud":19.43119,
    "nombre":"Río Amazonas-Río Lerma"
  },
  {
    "id":12,
    "principal":"Río Lerma",
    "secundario":"Villalongín",
    "referencia":"",
    "colonia":"Cuauhtémoc",
    "delegacion":"Cuauhtémoc",
    "longitud":-99.16169,
    "latitud":19.43222,
    "nombre":"Río Lerma-Villalongín"
  },
  {
    "id":13,
    "principal":"Paseo de la Reforma",
    "secundario":"Río Rodano",
    "referencia":"",
    "colonia":"Cuauhtémoc",
    "delegacion":"Cuauhtémoc",
    "longitud":-99.17522,
    "latitud":19.42362,
    "nombre":"Paseo de la Reforma-Río Rodano"
  },
  {
    "id":14,
    "principal":"Paseo de la Reforma",
    "secundario":"Río de la Plata",
    "referencia":"",
    "colonia":"Cuauhtémoc",
    "delegacion":"Cuauhtémoc",
    "longitud":-99.17325,
    "latitud":19.42454,
    "nombre":"Paseo de la Reforma-Río de la Plata"
  },
  {
    "id":15,
    "principal":"Paseo de la Reforma",
    "secundario":"Río Misisipi",
    "referencia":"",
    "colonia":"Cuauhtémoc",
    "delegacion":"Cuauhtémoc",
    "longitud":-99.17141,
    "latitud":19.4256,
    "nombre":"Paseo de la Reforma-Río Misisipi"
  },
  {
    "id":16,
    "principal":"Paseo de la Reforma",
    "secundario":"Río Guadalquivir",
    "referencia":"",
    "colonia":"Cuauhtémoc",
    "delegacion":"Cuauhtémoc",
    "longitud":-99.16923,
    "latitud":19.42646,
    "nombre":"Paseo de la Reforma-Río Guadalquivir"
  },
  {
    "id":17,
    "principal":"Paseo de la Reforma",
    "secundario":"Río Tiber",
    "referencia":"",
    "colonia":"Cuauhtémoc",
    "delegacion":"Cuauhtémoc",
    "longitud":-99.1674,
    "latitud":19.42755,
    "nombre":"Paseo de la Reforma-Río Tiber"
  },
  {
    "id":18,
    "principal":"Paseo de la Reforma",
    "secundario":"Río Sena",
    "referencia":"",
    "colonia":"Cuauhtémoc",
    "delegacion":"Cuauhtémoc",
    "longitud":-99.16525,
    "latitud":19.42832,
    "nombre":"Paseo de la Reforma-Río Sena"
  },
  {
    "id":19,
    "principal":"Paseo de la Reforma",
    "secundario":"Río Neva",
    "referencia":"",
    "colonia":"Cuauhtémoc",
    "delegacion":"Cuauhtémoc",
    "longitud":-99.1616,
    "latitud":19.43007,
    "nombre":"Paseo de la Reforma-Río Neva"
  },
  {
    "id":20,
    "principal":"Paseo de la Reforma",
    "secundario":"Río Tamesis",
    "referencia":"",
    "colonia":"Cuauhtémoc",
    "delegacion":"Cuauhtémoc",
    "longitud":-99.16015,
    "latitud":19.43091,
    "nombre":"Paseo de la Reforma-Río Tamesis"
  },
  {
    "id":21,
    "principal":"Paseo de la Reforma",
    "secundario":"Lieja",
    "referencia":"",
    "colonia":"Juárez",
    "delegacion":"Cuauhtémoc",
    "longitud":-99.17503,
    "latitud":19.42336,
    "nombre":"Paseo de la Reforma-Lieja"
  },
  {
    "id":22,
    "principal":"Paseo de la Reforma",
    "secundario":"Manchester",
    "referencia":"",
    "colonia":"Juárez",
    "delegacion":"Cuauhtémoc",
    "longitud":-99.17221,
    "latitud":19.42468,
    "nombre":"Paseo de la Reforma-Manchester"
  },
  {
    "id":23,
    "principal":"Paseo de la Reforma",
    "secundario":"Praga",
    "referencia":"",
    "colonia":"Juárez",
    "delegacion":"Cuauhtémoc",
    "longitud":-99.17049,
    "latitud":19.42545,
    "nombre":"Paseo de la Reforma-Praga"
  },
  {
    "id":24,
    "principal":"Paseo de la Reforma",
    "secundario":"Varsovia",
    "referencia":"",
    "colonia":"Juárez",
    "delegacion":"Cuauhtémoc",
    "longitud":-99.16906,
    "latitud":19.4261,
    "nombre":"Paseo de la Reforma-Varsovia"
  },
  {
    "id":25,
    "principal":"Paseo de la Reforma",
    "secundario":"Estocolmo",
    "referencia":"",
    "colonia":"Juárez",
    "delegacion":"Cuauhtémoc",
    "longitud":-99.16684,
    "latitud":19.42719,
    "nombre":"Paseo de la Reforma-Estocolmo"
  },
  {
    "id":26,
    "principal":"Paseo de la Reforma",
    "secundario":"Versalles",
    "referencia":"",
    "colonia":"Juárez",
    "delegacion":"Cuauhtémoc",
    "longitud":-99.155,
    "latitud":19.4326,
    "nombre":"Paseo de la Reforma-Versalles"
  },
  {
    "id":27,
    "principal":"Paseo de la Reforma",
    "secundario":"Havre",
    "referencia":"",
    "colonia":"Juárez",
    "delegacion":"Cuauhtémoc",
    "longitud":-99.1627,
    "latitud":19.42916,
    "nombre":"Paseo de la Reforma-Havre"
  },
  {
    "id":28,
    "principal":"Toledo",
    "secundario":"Tokio",
    "referencia":"",
    "colonia":"Juárez",
    "delegacion":"Cuauhtémoc",
    "longitud":-99.17257,
    "latitud":19.42366,
    "nombre":"Toledo-Tokio"
  },
  {
    "id":29,
    "principal":"Reforma",
    "secundario":"Bucareli",
    "referencia":"",
    "colonia":"Centro",
    "delegacion":"Cuauhtémoc",
    "longitud":-99.1503,
    "latitud":19.43494,
    "nombre":"Reforma-Bucareli"
  },
  {
    "id":30,
    "principal":"Hamburgo",
    "secundario":"Genova",
    "referencia":"",
    "colonia":"Juárez",
    "delegacion":"Cuauhtémoc",
    "longitud":-99.16426,
    "latitud":19.42638,
    "nombre":"Hamburgo-Genova"
  },
  {
    "id":31,
    "principal":"Hamburgo",
    "secundario":"Insurgentes",
    "referencia":"",
    "colonia":"Juárez",
    "delegacion":"Cuauhtémoc",
    "longitud":-99.16125,
    "latitud":19.42794,
    "nombre":"Hamburgo-Insurgentes"
  },
  {
    "id":32,
    "principal":"Londres",
    "secundario":"Sevilla",
    "referencia":"",
    "colonia":"Juárez",
    "delegacion":"Cuauhtémoc",
    "longitud":-99.1697,
    "latitud":19.42285,
    "nombre":"Londres-Sevilla"
  },
  {
    "id":33,
    "principal":"Londres",
    "secundario":"Florencia",
    "referencia":"",
    "colonia":"Juárez",
    "delegacion":"Cuauhtémoc",
    "longitud":-99.1665,
    "latitud":19.42419,
    "nombre":"Londres-Florencia"
  },
  {
    "id":34,
    "principal":"Liverpool",
    "secundario":"Genova",
    "referencia":"",
    "colonia":"Juárez",
    "delegacion":"Cuauhtémoc",
    "longitud":-99.16369,
    "latitud":19.42458,
    "nombre":"Liverpool-Genova"
  },
  {
    "id":35,
    "principal":"Liverpool",
    "secundario":"Genova",
    "referencia":"",
    "colonia":"Juárez",
    "delegacion":"Cuauhtémoc",
    "longitud":-99.16352,
    "latitud":19.42456,
    "nombre":"Liverpool-Genova"
  },
  {
    "id":36,
    "principal":"Puebla",
    "secundario":"Veracruz",
    "referencia":"",
    "colonia":"Roma Norte",
    "delegacion":"Cuauhtémoc",
    "longitud":-99.17588,
    "latitud":19.41966,
    "nombre":"Puebla-Veracruz"
  },
  {
    "id":37,
    "principal":"Guadalajara",
    "secundario":"Puebla",
    "referencia":"",
    "colonia":"Roma Norte",
    "delegacion":"Cuauhtémoc",
    "longitud":-99.17267,
    "latitud":19.42038,
    "nombre":"Guadalajara-Puebla"
  },
  {
    "id":38,
    "principal":"Cozumel",
    "secundario":"Chapultepec",
    "referencia":"",
    "colonia":"Roma Norte",
    "delegacion":"Cuauhtémoc",
    "longitud":-99.17158,
    "latitud":19.4213,
    "nombre":"Cozumel-Chapultepec"
  },
  {
    "id":39,
    "principal":"Medellín",
    "secundario":"Chapultepec",
    "referencia":"",
    "colonia":"Roma Norte",
    "delegacion":"Cuauhtémoc",
    "longitud":-99.16725,
    "latitud":19.42232,
    "nombre":"Medellín-Chapultepec"
  },
  {
    "id":40,
    "principal":"Oaxaca",
    "secundario":"Puebla",
    "referencia":"",
    "colonia":"Roma Norte",
    "delegacion":"Cuauhtémoc",
    "longitud":-99.16414,
    "latitud":19.42238,
    "nombre":"Oaxaca-Puebla"
  },
  {
    "id":41,
    "principal":"Paseo de la Reforma",
    "secundario":"Av. de la República",
    "referencia":"",
    "colonia":"Tabacalera",
    "delegacion":"Cuauhtémoc",
    "longitud":-99.15032,
    "latitud":19.43542,
    "nombre":"Paseo de la Reforma-Av. de la República"
  },
  {
    "id":42,
    "principal":"Sinaloa",
    "secundario":"Valladolid",
    "referencia":"",
    "colonia":"Roma Norte",
    "delegacion":"Cuauhtémoc",
    "longitud":-99.16821,
    "latitud":19.42063,
    "nombre":"Sinaloa-Valladolid"
  },
  {
    "id":43,
    "principal":"Juárez",
    "secundario":"Dr. Mora",
    "referencia":"",
    "colonia":"Centro",
    "delegacion":"Cuauhtémoc",
    "longitud":-99.14591,
    "latitud":19.43521,
    "nombre":"Juárez-Dr. Mora"
  },
  {
    "id":44,
    "principal":"Durango",
    "secundario":"Veracruz",
    "referencia":"",
    "colonia":"Roma Norte",
    "delegacion":"Cuauhtémoc",
    "longitud":-99.17471,
    "latitud":19.41814,
    "nombre":"Durango-Veracruz"
  },
  {
    "id":45,
    "principal":"Durango",
    "secundario":"Sonora",
    "referencia":"",
    "colonia":"Roma Norte",
    "delegacion":"Cuauhtémoc",
    "longitud":-99.17194,
    "latitud":19.41875,
    "nombre":"Durango-Sonora"
  },
  {
    "id":46,
    "principal":"Durango",
    "secundario":"Salamanca",
    "referencia":"",
    "colonia":"Roma Norte",
    "delegacion":"Cuauhtémoc",
    "longitud":-99.16976,
    "latitud":19.41919,
    "nombre":"Durango-Salamanca"
  },
  {
    "id":47,
    "principal":"Plaza Madrid",
    "secundario":"Oaxaca",
    "referencia":"",
    "colonia":"Roma Norte",
    "delegacion":"Cuauhtémoc",
    "longitud":-99.16627,
    "latitud":19.41971,
    "nombre":"Plaza Madrid-Oaxaca"
  },
  {
    "id":48,
    "principal":"Independencia",
    "secundario":"Azueta",
    "referencia":"",
    "colonia":"Centro",
    "delegacion":"Cuauhtémoc",
    "longitud":-99.14667,
    "latitud":19.43371,
    "nombre":"Independencia-Azueta"
  },
  {
    "id":49,
    "principal":"Mazatlán",
    "secundario":"Juan de la Barrera",
    "referencia":"",
    "colonia":"Condesa",
    "delegacion":"Cuauhtémoc",
    "longitud":-99.17562,
    "latitud":19.41689,
    "nombre":"Mazatlán-Juan de la Barrera"
  },
  {
    "id":50,
    "principal":"Cuernavaca",
    "secundario":"Veracruz",
    "referencia":"",
    "colonia":"Condesa",
    "delegacion":"Cuauhtémoc",
    "longitud":-99.17359,
    "latitud":19.41689,
    "nombre":"Cuernavaca-Veracruz"
  },
  {
    "id":51,
    "principal":"Colima",
    "secundario":"Oaxaca",
    "referencia":"",
    "colonia":"Roma Norte",
    "delegacion":"Cuauhtémoc",
    "longitud":-99.16844,
    "latitud":19.41803,
    "nombre":"Colima-Oaxaca"
  },
  {
    "id":52,
    "principal":"Hidalgo",
    "secundario":"Trujano",
    "referencia":"",
    "colonia":"Centro",
    "delegacion":"Cuauhtémoc",
    "longitud":-99.14371,
    "latitud":19.43656,
    "nombre":"Hidalgo-Trujano"
  },
  {
    "id":53,
    "principal":"Fernando Montes de Oca",
    "secundario":"Tula",
    "referencia":"",
    "colonia":"Condesa",
    "delegacion":"Cuauhtémoc",
    "longitud":-99.17847,
    "latitud":19.41469,
    "nombre":"Fernando Montes de Oca-Tula"
  },
  {
    "id":54,
    "principal":"Parque España",
    "secundario":"Sonora",
    "referencia":"",
    "colonia":"Condesa",
    "delegacion":"Cuauhtémoc",
    "longitud":-99.1708,
    "latitud":19.41616,
    "nombre":"Parque España-Sonora"
  },
  {
    "id":55,
    "principal":"5 de Mayo",
    "secundario":"Bolivar",
    "referencia":"",
    "colonia":"Centro",
    "delegacion":"Cuauhtémoc",
    "longitud":-99.13807,
    "latitud":19.43451,
    "nombre":"5 de Mayo-Bolivar"
  },
  {
    "id":56,
    "principal":"Álvaro Obregón",
    "secundario":"Medellín",
    "referencia":"",
    "colonia":"Roma Norte",
    "delegacion":"Cuauhtémoc",
    "longitud":-99.16561,
    "latitud":19.4171,
    "nombre":"Álvaro Obregón-Medellín"
  },
  {
    "id":57,
    "principal":"Cuernavaca",
    "secundario":"Juan Escutia",
    "referencia":"",
    "colonia":"Condesa",
    "delegacion":"Cuauhtémoc",
    "longitud":-99.17477,
    "latitud":19.41497,
    "nombre":"Cuernavaca-Juan Escutia"
  },
  {
    "id":58,
    "principal":"Parque España",
    "secundario":"Juan de la Barrera",
    "referencia":"",
    "colonia":"Condesa",
    "delegacion":"Cuauhtémoc",
    "longitud":-99.1719,
    "latitud":19.41536,
    "nombre":"Parque España-Juan de la Barrera"
  },
  {
    "id":59,
    "principal":"Popocatépetl",
    "secundario":"Amsterdam",
    "referencia":"",
    "colonia":"Hipódromo",
    "delegacion":"Cuauhtémoc",
    "longitud":-99.16659,
    "latitud":19.41524,
    "nombre":"Popocatépetl-Amsterdam"
  },
  {
    "id":60,
    "principal":"Mazatlán",
    "secundario":"Fernando Montes de Oca",
    "referencia":"",
    "colonia":"Condesa",
    "delegacion":"Cuauhtémoc",
    "longitud":-99.17721,
    "latitud":19.41412,
    "nombre":"Mazatlán-Fernando Montes de Oca"
  },
  {
    "id":61,
    "principal":"Avenida México",
    "secundario":"Sonora",
    "referencia":"",
    "colonia":"Hipódromo",
    "delegacion":"Cuauhtémoc",
    "longitud":-99.16943,
    "latitud":19.41379,
    "nombre":"Avenida México-Sonora"
  },
  {
    "id":62,
    "principal":"Fernando Montes de Oca",
    "secundario":"Amatlán",
    "referencia":"",
    "colonia":"Condesa",
    "delegacion":"Cuauhtémoc",
    "longitud":-99.17523,
    "latitud":19.41331,
    "nombre":"Fernando Montes de Oca-Amatlán"
  },
  {
    "id":63,
    "principal":"Nuevo León",
    "secundario":"Laredo",
    "referencia":"",
    "colonia":"Hipódromo",
    "delegacion":"Cuauhtémoc",
    "longitud":-99.17168,
    "latitud":19.41299,
    "nombre":"Nuevo León-Laredo"
  },
  {
    "id":64,
    "principal":"Sonora",
    "secundario":"Amsterdam",
    "referencia":"",
    "colonia":"Hipódromo",
    "delegacion":"Cuauhtémoc",
    "longitud":-99.16694,
    "latitud":19.41298,
    "nombre":"Sonora-Amsterdam"
  },
  {
    "id":65,
    "principal":"Marconi",
    "secundario":"Tacuba",
    "referencia":"",
    "colonia":"Centro",
    "delegacion":"Cuauhtémoc",
    "longitud":-99.13981,
    "latitud":19.43652,
    "nombre":"Marconi-Tacuba"
  },
  {
    "id":66,
    "principal":"Mazatlán",
    "secundario":"Francisco Márquez",
    "referencia":"",
    "colonia":"Condesa",
    "delegacion":"Cuauhtémoc",
    "longitud":-99.17848,
    "latitud":19.41181,
    "nombre":"Mazatlán-Francisco Márquez"
  },
  {
    "id":67,
    "principal":"Vicente Suárez",
    "secundario":"Michoacan",
    "referencia":"",
    "colonia":"Condesa",
    "delegacion":"Cuauhtémoc",
    "longitud":-99.17575,
    "latitud":19.4117,
    "nombre":"Vicente Suárez-Michoacan"
  },
  {
    "id":68,
    "principal":"Tamaulipas",
    "secundario":"Michoacan",
    "referencia":"",
    "colonia":"Hipódromo Condesa",
    "delegacion":"Cuauhtémoc",
    "longitud":-99.17378,
    "latitud":19.41177,
    "nombre":"Tamaulipas-Michoacan"
  },
  {
    "id":69,
    "principal":"Michoacan",
    "secundario":"Amsterdam",
    "referencia":"",
    "colonia":"Hipódromo",
    "delegacion":"Cuauhtémoc",
    "longitud":-99.16814,
    "latitud":19.4108,
    "nombre":"Michoacan-Amsterdam"
  },
  {
    "id":70,
    "principal":"Parque México",
    "secundario":"Michoacan",
    "referencia":"",
    "colonia":"Hipódromo",
    "delegacion":"Cuauhtémoc",
    "longitud":-99.16983,
    "latitud":19.41128,
    "nombre":"Parque México-Michoacan"
  },
  {
    "id":71,
    "principal":"Amsterdam",
    "secundario":"Michoacan",
    "referencia":"",
    "colonia":"Hipódromo",
    "delegacion":"Cuauhtémoc",
    "longitud":-99.17127,
    "latitud":19.41136,
    "nombre":"Amsterdam-Michoacan"
  },
  {
    "id":72,
    "principal":"Mazatlán",
    "secundario":"Alfonso Reyes",
    "referencia":"",
    "colonia":"Hipódromo Condesa",
    "delegacion":"Cuauhtémoc",
    "longitud":-99.17957,
    "latitud":19.40986,
    "nombre":"Mazatlán-Alfonso Reyes"
  },
  {
    "id":73,
    "principal":"Campeche",
    "secundario":"Tamaulipas",
    "referencia":"",
    "colonia":"Hipódromo Condesa",
    "delegacion":"Cuauhtémoc",
    "longitud":-99.17554,
    "latitud":19.41007,
    "nombre":"Campeche-Tamaulipas"
  },
  {
    "id":74,
    "principal":"Nuevo León",
    "secundario":"Ozulama",
    "referencia":"",
    "colonia":"Hipódromo",
    "delegacion":"Cuauhtémoc",
    "longitud":-99.1728,
    "latitud":19.41047,
    "nombre":"Nuevo León-Ozulama"
  },
  {
    "id":75,
    "principal":"Alfonso Reyes",
    "secundario":"Atlixco",
    "referencia":"",
    "colonia":"Hipódromo Condesa",
    "delegacion":"Cuauhtémoc",
    "longitud":-99.17676,
    "latitud":19.40868,
    "nombre":"Alfonso Reyes-Atlixco"
  },
  {
    "id":76,
    "principal":"Amsterdam",
    "secundario":"Chilpancingo",
    "referencia":"",
    "colonia":"Hipódromo",
    "delegacion":"Cuauhtémoc",
    "longitud":-99.17044,
    "latitud":19.40944,
    "nombre":"Amsterdam-Chilpancingo"
  },
  {
    "id":77,
    "principal":"Choapan",
    "secundario":"Tamaulipas",
    "referencia":"",
    "colonia":"Hipódromo",
    "delegacion":"Cuauhtémoc",
    "longitud":-99.17827,
    "latitud":19.40675,
    "nombre":"Choapan-Tamaulipas"
  },
  {
    "id":78,
    "principal":"Benjamín Hill",
    "secundario":"Tamaulipas",
    "referencia":"",
    "colonia":"Hipódromo",
    "delegacion":"Cuauhtémoc",
    "longitud":-99.17736,
    "latitud":19.40751,
    "nombre":"Benjamín Hill-Tamaulipas"
  },
  {
    "id":79,
    "principal":"Saltillo",
    "secundario":"Alfonso Reyes",
    "referencia":"",
    "colonia":"Hipódromo",
    "delegacion":"Cuauhtémoc",
    "longitud":-99.17431,
    "latitud":19.40745,
    "nombre":"Saltillo-Alfonso Reyes"
  },
  {
    "id":80,
    "principal":"Nuevo León",
    "secundario":"Aguascalientes",
    "referencia":"",
    "colonia":"Hipódromo",
    "delegacion":"Cuauhtémoc",
    "longitud":-99.17213,
    "latitud":19.40723,
    "nombre":"Nuevo León-Aguascalientes"
  },
  {
    "id":81,
    "principal":"Aguascalientes",
    "secundario":"Insurgentes",
    "referencia":"",
    "colonia":"Hipódromo",
    "delegacion":"Cuauhtémoc",
    "longitud":-99.16873,
    "latitud":19.40793,
    "nombre":"Aguascalientes-Insurgentes"
  },
  {
    "id":82,
    "principal":"Independencia",
    "secundario":"Marroquí",
    "referencia":"",
    "colonia":"Centro",
    "delegacion":"Cuauhtémoc",
    "longitud":-99.14404,
    "latitud":19.43334,
    "nombre":"Independencia-Marroquí"
  },
  {
    "id":83,
    "principal":"Nuevo León",
    "secundario":"Alfonso Reyes",
    "referencia":"",
    "colonia":"Hipódromo",
    "delegacion":"Cuauhtémoc",
    "longitud":-99.17216,
    "latitud":19.40628,
    "nombre":"Nuevo León-Alfonso Reyes"
  },
  {
    "id":84,
    "principal":"Chilpancingo",
    "secundario":"Tlaxcala",
    "referencia":"",
    "colonia":"Hipódromo",
    "delegacion":"Cuauhtémoc",
    "longitud":-99.16957,
    "latitud":19.40687,
    "nombre":"Chilpancingo-Tlaxcala"
  },
  {
    "id":85,
    "principal":"Rosas Moreno",
    "secundario":"Sullivan",
    "referencia":"",
    "colonia":"SAN RAFAEL",
    "delegacion":"Cuauhtémoc",
    "longitud":-99.16243,
    "latitud":19.43408,
    "nombre":"Rosas Moreno-Sullivan"
  },
  {
    "id":86,
    "principal":"Sullivan",
    "secundario":"Insurgentes",
    "referencia":"",
    "colonia":"SAN RAFAEL",
    "delegacion":"Cuauhtémoc",
    "longitud":-99.15924,
    "latitud":19.43245,
    "nombre":"Sullivan-Insurgentes"
  },
  {
    "id":87,
    "principal":"Gante",
    "secundario":"16 de Septiembre",
    "referencia":"",
    "colonia":"Centro",
    "delegacion":"Cuauhtémoc",
    "longitud":-99.13956,
    "latitud":19.43279,
    "nombre":"Gante-16 de Septiembre"
  },
  {
    "id":88,
    "principal":"2a. Cerrada de 5 de Mayo",
    "secundario":"Palma",
    "referencia":"",
    "colonia":"Centro",
    "delegacion":"Cuauhtémoc",
    "longitud":-99.13533,
    "latitud":19.43376,
    "nombre":"2a. Cerrada de 5 de Mayo-Palma"
  },
  {
    "id":89,
    "principal":"República de Guatemala",
    "secundario":"Monte de Piedad",
    "referencia":"",
    "colonia":"Centro",
    "delegacion":"Cuauhtémoc",
    "longitud":-99.13373,
    "latitud":19.43496,
    "nombre":"República de Guatemala-Monte de Piedad"
  },
  {
    "id":90,
    "principal":"José María Pino Suárez",
    "secundario":"Corregidora",
    "referencia":"",
    "colonia":"Centro",
    "delegacion":"Cuauhtémoc",
    "longitud":-99.13251,
    "latitud":19.43144,
    "nombre":"José María Pino Suárez-Corregidora"
  },
  {
    "id":91,
    "principal":"República de Cuba",
    "secundario":"Allende",
    "referencia":"Frente a numero 42",
    "colonia":"Centro",
    "delegacion":"Cuauhtémoc",
    "longitud":-99.137571,
    "latitud":19.4374,
    "nombre":"República de Cuba-Allende"
  },
  {
    "id":92,
    "principal":"San Ildefonso",
    "secundario":"República de Argentina",
    "referencia":"A un costado de la Secretaría de Seguridad Pública",
    "colonia":"Centro",
    "delegacion":"Cuauhtémoc",
    "longitud":-99.131497,
    "latitud":19.436531,
    "nombre":"San Ildefonso-República de Argentina"
  },
  {
    "id":93,
    "principal":"Palma Norte",
    "secundario":"Republica de Cuba",
    "referencia":"Frente a Restaurante Barracuda",
    "colonia":"Centro",
    "delegacion":"Cuauhtémoc",
    "longitud":-99.134811,
    "latitud":19.436741,
    "nombre":"Palma Norte-Republica de Cuba"
  },
  {
    "id":94,
    "principal":"Lic. Verdad",
    "secundario":"Moneda",
    "referencia":"Frente al Museo de la SHCP",
    "colonia":"Centro",
    "delegacion":"Cuauhtémoc",
    "longitud":-99.130918,
    "latitud":19.433766,
    "nombre":"Lic. Verdad-Moneda"
  },
  {
    "id":95,
    "principal":"20 de Noviembre",
    "secundario":"Venustiano Carranza",
    "referencia":"Frente a el Templo San Bernardo",
    "colonia":"Centro",
    "delegacion":"Cuauhtémoc",
    "longitud":-99.133698,
    "latitud":19.430722,
    "nombre":"20 de Noviembre-Venustiano Carranza"
  },
  {
    "id":96,
    "principal":"López",
    "secundario":"Ayuntamiento",
    "referencia":"Frente  a accesorias de iluminación",
    "colonia":"Centro",
    "delegacion":"Cuauhtémoc",
    "longitud":-99.14248,
    "latitud":19.430625,
    "nombre":"López-Ayuntamiento"
  },
  {
    "id":97,
    "principal":"Republica de Salvador",
    "secundario":"Pino Suarez",
    "referencia":"A un costado de jardinera",
    "colonia":"Centro",
    "delegacion":"Cuauhtémoc",
    "longitud":-99.132759,
    "latitud":19.429189,
    "nombre":"Republica de Salvador-Pino Suarez"
  },
  {
    "id":98,
    "principal":"Emilio Dondé",
    "secundario":"Av. Balderas",
    "referencia":"A un costado del mercado de Artesanías \"Ciudadela\"",
    "colonia":"Centro",
    "delegacion":"Cuauhtémoc",
    "longitud":-99.14861,
    "latitud":19.430267,
    "nombre":"Emilio Dondé-Av. Balderas"
  },
  {
    "id":99,
    "principal":"Ernesto Pugibet",
    "secundario":"Luis Moya",
    "referencia":"Frente a locales de comercio",
    "colonia":"Centro",
    "delegacion":"Cuauhtémoc",
    "longitud":-99.14591,
    "latitud":19.429947,
    "nombre":"Ernesto Pugibet-Luis Moya"
  },
  {
    "id":100,
    "principal":"20 de Noviembre",
    "secundario":"Mesones",
    "referencia":"Frente a Zapaterías León",
    "colonia":"Centro",
    "delegacion":"Cuauhtémoc",
    "longitud":-99.1338,
    "latitud":19.428485,
    "nombre":"20 de Noviembre-Mesones"
  },
  {
    "id":101,
    "principal":"1er. Callejón de Mesones",
    "secundario":"Mesones",
    "referencia":"Frente a las Accesorias cerradas.",
    "colonia":"Centro",
    "delegacion":"Cuauhtémoc",
    "longitud":-99.135895,
    "latitud":19.428366,
    "nombre":"1er. Callejón de Mesones-Mesones"
  },
  {
    "id":102,
    "principal":"Echeveste",
    "secundario":"Bolívar",
    "referencia":"Calle Jiménez",
    "colonia":"Centro",
    "delegacion":"Cuauhtémoc",
    "longitud":-99.139494,
    "latitud":19.428214,
    "nombre":"Echeveste-Bolívar"
  },
  {
    "id":104,
    "principal":"San Jerónimo",
    "secundario":"Isabel la Católica",
    "referencia":"Detrás de Universidad del Claustro de Sor Juana",
    "colonia":"Centro",
    "delegacion":"Cuauhtémoc",
    "longitud":-99.137116,
    "latitud":19.427059,
    "nombre":"San Jerónimo-Isabel la Católica"
  },
  {
    "id":105,
    "principal":"San Jerónimo",
    "secundario":"5 de febrero",
    "referencia":"Frente a No. 77",
    "colonia":"Centro",
    "delegacion":"Cuauhtémoc",
    "longitud":-99.135014,
    "latitud":19.426755,
    "nombre":"San Jerónimo-5 de febrero"
  },
  {
    "id":106,
    "principal":"San Jerónimo",
    "secundario":"José María Pino Suarez",
    "referencia":"Frente a Parroquia San Miguel Arcángel",
    "colonia":"Centro",
    "delegacion":"Cuauhtémoc",
    "longitud":-99.133537,
    "latitud":19.42649,
    "nombre":"San Jerónimo-José María Pino Suarez"
  },
  {
    "id":107,
    "principal":"Tolsa",
    "secundario":"Balderas",
    "referencia":"Frente a HSBC",
    "colonia":"Centro",
    "delegacion":"Cuauhtémoc",
    "longitud":-99.149971,
    "latitud":19.427329,
    "nombre":"Tolsa-Balderas"
  },
  {
    "id":108,
    "principal":"Tolsa",
    "secundario":"Balderas",
    "referencia":"Frente a HSBC",
    "colonia":"Centro",
    "delegacion":"Cuauhtémoc",
    "longitud":-99.149533,
    "latitud":19.427305,
    "nombre":"Tolsa-Balderas"
  },
  {
    "id":109,
    "principal":"Nezahualcóyotl",
    "secundario":"Isabel la Católica",
    "referencia":"Frente a edificio de Agua Potable",
    "colonia":"Centro",
    "delegacion":"Cuauhtémoc",
    "longitud":-99.137421,
    "latitud":19.425311,
    "nombre":"Nezahualcóyotl-Isabel la Católica"
  },
  {
    "id":110,
    "principal":"Dr. Valenzuela",
    "secundario":"Dr. Río de la Loza",
    "referencia":"Frente a Ford",
    "colonia":"Doctores",
    "delegacion":"Cuauhtémoc",
    "longitud":-99.143391,
    "latitud":19.425126,
    "nombre":"Dr. Valenzuela-Dr. Río de la Loza"
  },
  {
    "id":112,
    "principal":"Av. Morelos",
    "secundario":"Abraham González",
    "referencia":"Frente a edificio Expo Reforma",
    "colonia":"Juárez",
    "delegacion":"Cuauhtémoc",
    "longitud":-99.151734,
    "latitud":19.432819,
    "nombre":"Av. Morelos-Abraham González"
  },
  {
    "id":113,
    "principal":"General Prim",
    "secundario":"Versalles",
    "referencia":"Frente a Funeraria J. García y Restaurant",
    "colonia":"Juárez",
    "delegacion":"Cuauhtémoc",
    "longitud":-99.154419,
    "latitud":19.430369,
    "nombre":"General Prim-Versalles"
  },
  {
    "id":114,
    "principal":"Lucerna",
    "secundario":"Abraham González",
    "referencia":"Frente a cantina Circulo del Sureste",
    "colonia":"Juárez",
    "delegacion":"Cuauhtémoc",
    "longitud":-99.153618,
    "latitud":19.428989,
    "nombre":"Lucerna-Abraham González"
  },
  {
    "id":115,
    "principal":"Roma",
    "secundario":"Dinamarca",
    "referencia":"A un costado de Mac´Donals",
    "colonia":"Juárez",
    "delegacion":"Cuauhtémoc",
    "longitud":-99.159698,
    "latitud":19.429947,
    "nombre":"Roma-Dinamarca"
  },
  {
    "id":116,
    "principal":"Londres",
    "secundario":"Roma",
    "referencia":"Frente a Sumesa a un costado de Iglesia",
    "colonia":"Juárez",
    "delegacion":"Cuauhtémoc",
    "longitud":-99.15664,
    "latitud":19.428985,
    "nombre":"Londres-Roma"
  },
  {
    "id":117,
    "principal":"Londres",
    "secundario":"Nápoles",
    "referencia":"Frente a Seven 7",
    "colonia":"Juárez",
    "delegacion":"Cuauhtémoc",
    "longitud":-99.160369,
    "latitud":19.427132,
    "nombre":"Londres-Nápoles"
  },
  {
    "id":118,
    "principal":"Liverpool",
    "secundario":"Dinamarca",
    "referencia":"Frente a La Vitrola",
    "colonia":"Juárez",
    "delegacion":"Cuauhtémoc",
    "longitud":-99.158251,
    "latitud":19.427114,
    "nombre":"Liverpool-Dinamarca"
  },
  {
    "id":119,
    "principal":"Turín",
    "secundario":"Abraham González",
    "referencia":"Frente a No.40",
    "colonia":"Juárez",
    "delegacion":"Cuauhtémoc",
    "longitud":-99.155535,
    "latitud":19.426785,
    "nombre":"Turín-Abraham González"
  },
  {
    "id":120,
    "principal":"Marsella",
    "secundario":"Nápoles",
    "referencia":"Frente a No. 51",
    "colonia":"Juárez",
    "delegacion":"Cuauhtémoc",
    "longitud":-99.159458,
    "latitud":19.425437,
    "nombre":"Marsella-Nápoles"
  },
  {
    "id":121,
    "principal":"Niza",
    "secundario":"Chapultepec",
    "referencia":"Frente a Canchas de usos Múltiples.",
    "colonia":"Juárez",
    "delegacion":"Cuauhtémoc",
    "longitud":-99.161317,
    "latitud":19.424137,
    "nombre":"Niza-Chapultepec"
  },
  {
    "id":122,
    "principal":"José María Vértiz",
    "secundario":"Av. Dr. Río de la Loza",
    "referencia":"A un costado de Escuela Libre de Derecho",
    "colonia":"Doctores",
    "delegacion":"Cuauhtémoc",
    "longitud":-99.146337,
    "latitud":19.425502,
    "nombre":"José María Vértiz-Av. Dr. Río de la Loza"
  },
  {
    "id":123,
    "principal":"Claudio Bernard",
    "secundario":"Dr. Lavista",
    "referencia":"Frente a distribuidora de Plásticos",
    "colonia":"Doctores",
    "delegacion":"Cuauhtémoc",
    "longitud":-99.153117,
    "latitud":19.424161,
    "nombre":"Claudio Bernard-Dr. Lavista"
  },
  {
    "id":124,
    "principal":"Claudio Bernard",
    "secundario":"Dr. Liceaga",
    "referencia":"Frente a estación Indianilla",
    "colonia":"Doctores",
    "delegacion":"Cuauhtémoc",
    "longitud":-99.150358,
    "latitud":19.422392,
    "nombre":"Claudio Bernard-Dr. Liceaga"
  },
  {
    "id":125,
    "principal":"Morelia",
    "secundario":"Circular de Morelia",
    "referencia":"Frente a Plaza Morelia",
    "colonia":"Roma Norte",
    "delegacion":"Cuauhtémoc",
    "longitud":-99.156204,
    "latitud":19.424541,
    "nombre":"Morelia-Circular de Morelia"
  },
  {
    "id":126,
    "principal":"Jalapa",
    "secundario":"Puebla",
    "referencia":"Frente a Centro Universitario San Ángel",
    "colonia":"Roma Norte",
    "delegacion":"Cuauhtémoc",
    "longitud":-99.162138,
    "latitud":19.422288,
    "nombre":"Jalapa-Puebla"
  },
  {
    "id":127,
    "principal":"Puebla",
    "secundario":"Mérida",
    "referencia":"Frente a edificio rojo No.79",
    "colonia":"Roma Norte",
    "delegacion":"Cuauhtémoc",
    "longitud":-99.15833,
    "latitud":19.423318,
    "nombre":"Puebla-Mérida"
  },
  {
    "id":128,
    "principal":"Orizaba",
    "secundario":"Rio de Janeiro",
    "referencia":"Frente al Tribunal Agrario",
    "colonia":"Roma Norte",
    "delegacion":"Cuauhtémoc",
    "longitud":-99.160645,
    "latitud":19.422148,
    "nombre":"Orizaba-Rio de Janeiro"
  },
  {
    "id":129,
    "principal":"Tonalá",
    "secundario":"Durango",
    "referencia":"Frente a casa color amarillo",
    "colonia":"Roma Norte",
    "delegacion":"Cuauhtémoc",
    "longitud":-99.163312,
    "latitud":19.4206,
    "nombre":"Tonalá-Durango"
  },
  {
    "id":130,
    "principal":"Mérida",
    "secundario":"Durango",
    "referencia":"A un costado de Restaurant Kachis",
    "colonia":"Roma Norte",
    "delegacion":"Cuauhtémoc",
    "longitud":-99.158015,
    "latitud":19.421576,
    "nombre":"Mérida-Durango"
  },
  {
    "id":131,
    "principal":"Colima",
    "secundario":"Jalapa",
    "referencia":"Frente a Auditorio Heriberto Castillo Martínez",
    "colonia":"Roma Norte",
    "delegacion":"Cuauhtémoc",
    "longitud":-99.161314,
    "latitud":19.419579,
    "nombre":"Colima-Jalapa"
  },
  {
    "id":132,
    "principal":"Colima",
    "secundario":"Frontera",
    "referencia":"Frente a Edificio Marisol",
    "colonia":"Roma Norte",
    "delegacion":"Cuauhtémoc",
    "longitud":-99.15645,
    "latitud":19.420667,
    "nombre":"Colima-Frontera"
  },
  {
    "id":133,
    "principal":"Colima",
    "secundario":"Morelia",
    "referencia":"Frente a Tienda Vértigo",
    "colonia":"Roma Norte",
    "delegacion":"Cuauhtémoc",
    "longitud":-99.154725,
    "latitud":19.421138,
    "nombre":"Colima-Morelia"
  },
  {
    "id":134,
    "principal":"Álvaro Obregón",
    "secundario":"Orizaba",
    "referencia":"Frente a Café Mac´ma",
    "colonia":"Roma Norte",
    "delegacion":"Cuauhtémoc",
    "longitud":-99.15956,
    "latitud":19.418304,
    "nombre":"Álvaro Obregón-Orizaba"
  },
  {
    "id":135,
    "principal":"Álvaro Obregón",
    "secundario":"Morelia",
    "referencia":"Frente a Hotel Stanza",
    "colonia":"Roma Norte",
    "delegacion":"Cuauhtémoc",
    "longitud":-99.155099,
    "latitud":19.419225,
    "nombre":"Álvaro Obregón-Morelia"
  },
  {
    "id":136,
    "principal":"Álvaro Obregón",
    "secundario":"Tonalá",
    "referencia":"Frente a Agencia Renault",
    "colonia":"Roma Norte",
    "delegacion":"Cuauhtémoc",
    "longitud":-99.162729,
    "latitud":19.417715,
    "nombre":"Álvaro Obregón-Tonalá"
  },
  {
    "id":137,
    "principal":"Álvaro Obregón",
    "secundario":"Mérida",
    "referencia":"Frente a Bísquets Obregón",
    "colonia":"Roma Norte",
    "delegacion":"Cuauhtémoc",
    "longitud":-99.157081,
    "latitud":19.418774,
    "nombre":"Álvaro Obregón-Mérida"
  },
  {
    "id":138,
    "principal":"Guanajuato",
    "secundario":"Frontera",
    "referencia":"Frente a número 17",
    "colonia":"Roma Norte",
    "delegacion":"Cuauhtémoc",
    "longitud":-99.155313,
    "latitud":19.417702,
    "nombre":"Guanajuato-Frontera"
  },
  {
    "id":139,
    "principal":"Tonalá",
    "secundario":"Guanajuato",
    "referencia":"Frente a número 120",
    "colonia":"Roma Norte",
    "delegacion":"Cuauhtémoc",
    "longitud":-99.162097,
    "latitud":19.416128,
    "nombre":"Tonalá-Guanajuato"
  },
  {
    "id":140,
    "principal":"Mérida",
    "secundario":"Zacatecas",
    "referencia":"Frente a la tienda \"People For Bikes\"",
    "colonia":"Roma Norte",
    "delegacion":"Cuauhtémoc",
    "longitud":-99.156853,
    "latitud":19.416605,
    "nombre":"Mérida-Zacatecas"
  },
  {
    "id":141,
    "principal":"Zacatecas",
    "secundario":"Luis Cabrera",
    "referencia":"A un costado de la Universidad Londres Campus Luis Cabrera",
    "colonia":"Roma Norte",
    "delegacion":"Cuauhtémoc",
    "longitud":-99.15954,
    "latitud":19.415905,
    "nombre":"Zacatecas-Luis Cabrera"
  },
  {
    "id":142,
    "principal":"San Luis Potosí",
    "secundario":"Eje 2 Pte. Monterrey",
    "referencia":"Frente a estacionamiento Público",
    "colonia":"Roma Norte",
    "delegacion":"Cuauhtémoc",
    "longitud":-99.164121,
    "latitud":19.413232,
    "nombre":"San Luis Potosí-Eje 2 Pte. Monterrey"
  },
  {
    "id":143,
    "principal":"Córdoba",
    "secundario":"San Luis Potosí",
    "referencia":"Frente a casa Amarilla",
    "colonia":"Roma Norte",
    "delegacion":"Cuauhtémoc",
    "longitud":-99.157542,
    "latitud":19.414303,
    "nombre":"Córdoba-San Luis Potosí"
  },
  {
    "id":144,
    "principal":"Frontera",
    "secundario":"San Luis Potosí",
    "referencia":"Detrás de Gasolinera",
    "colonia":"Roma Norte",
    "delegacion":"Cuauhtémoc",
    "longitud":-99.154837,
    "latitud":19.415192,
    "nombre":"Frontera-San Luis Potosí"
  },
  {
    "id":145,
    "principal":"Eje 2 Sur Yucatán",
    "secundario":"Chiapas",
    "referencia":"Frente a Edificio No. 132, Contra esquina de Gasolinera",
    "colonia":"Roma Norte",
    "delegacion":"Cuauhtémoc",
    "longitud":-99.160661,
    "latitud":19.41286,
    "nombre":"Eje 2 Sur Yucatán-Chiapas"
  },
  {
    "id":146,
    "principal":"Coahuila",
    "secundario":"Manzanillo",
    "referencia":"Frente a estacionamiento Público",
    "colonia":"Roma Norte",
    "delegacion":"Cuauhtémoc",
    "longitud":-99.165716,
    "latitud":19.410737,
    "nombre":"Coahuila-Manzanillo"
  },
  {
    "id":147,
    "principal":"Coahuila",
    "secundario":"Orizaba",
    "referencia":"A un costado de Centro Pare de Sufrir",
    "colonia":"Roma Norte",
    "delegacion":"Cuauhtémoc",
    "longitud":-99.158443,
    "latitud":19.412182,
    "nombre":"Coahuila-Orizaba"
  },
  {
    "id":148,
    "principal":"Coahuila",
    "secundario":"Av. Cuauhtémoc",
    "referencia":"Frente a tienda Mendilandia",
    "colonia":"Roma Norte",
    "delegacion":"Cuauhtémoc",
    "longitud":-99.155116,
    "latitud":19.412829,
    "nombre":"Coahuila-Av. Cuauhtémoc"
  },
  {
    "id":149,
    "principal":"Mérida",
    "secundario":"Antonio Anza",
    "referencia":"Frente a Centro de Apoyo Socio Jurídico a Victimas del Delito Violento",
    "colonia":"Roma Norte",
    "delegacion":"Cuauhtémoc",
    "longitud":-99.155699,
    "latitud":19.41199,
    "nombre":"Mérida-Antonio Anza"
  },
  {
    "id":150,
    "principal":"Campeche",
    "secundario":"Medellín",
    "referencia":"Frente a taquería El Charro",
    "colonia":"Roma Sur",
    "delegacion":"Cuauhtémoc",
    "longitud":-99.164292,
    "latitud":19.409965,
    "nombre":"Campeche-Medellín"
  },
  {
    "id":151,
    "principal":"Campeche",
    "secundario":"Tonalá",
    "referencia":"Frente al No. 48",
    "colonia":"Roma Sur",
    "delegacion":"Cuauhtémoc",
    "longitud":-99.160873,
    "latitud":19.410529,
    "nombre":"Campeche-Tonalá"
  },
  {
    "id":152,
    "principal":"Tlacotalpan",
    "secundario":"Campeche",
    "referencia":"Detrás de la renta de Vestidos de Noche.",
    "colonia":"Roma Sur",
    "delegacion":"Cuauhtémoc",
    "longitud":-99.167181,
    "latitud":19.409098,
    "nombre":"Tlacotalpan-Campeche"
  },
  {
    "id":153,
    "principal":"Manzanillo",
    "secundario":"Tlaxcala",
    "referencia":"A un costado del hospital trinidad",
    "colonia":"Roma Sur",
    "delegacion":"Cuauhtémoc",
    "longitud":-99.165141,
    "latitud":19.407468,
    "nombre":"Manzanillo-Tlaxcala"
  },
  {
    "id":154,
    "principal":"Tuxpan",
    "secundario":"Tlaxcala",
    "referencia":"Frente a Óptica Rochester",
    "colonia":"Roma Sur",
    "delegacion":"Cuauhtémoc",
    "longitud":-99.167962,
    "latitud":19.406683,
    "nombre":"Tuxpan-Tlaxcala"
  },
  {
    "id":155,
    "principal":"Jalapa",
    "secundario":"Tlaxcala",
    "referencia":"Frente a entrada de Deportivo",
    "colonia":"Roma Sur",
    "delegacion":"Cuauhtémoc",
    "longitud":-99.159911,
    "latitud":19.408218,
    "nombre":"Jalapa-Tlaxcala"
  },
  {
    "id":156,
    "principal":"Tepic",
    "secundario":"Amenalco",
    "referencia":"frente a Edificio No. 40",
    "colonia":"Roma Sur",
    "delegacion":"Cuauhtémoc",
    "longitud":-99.162171,
    "latitud":19.407124,
    "nombre":"Tepic-Amenalco"
  },
  {
    "id":157,
    "principal":"Tepic",
    "secundario":"Tlacotalpan",
    "referencia":"Frente a café Carretino",
    "colonia":"Roma Sur",
    "delegacion":"Cuauhtémoc",
    "longitud":-99.166616,
    "latitud":19.406236,
    "nombre":"Tepic-Tlacotalpan"
  },
  {
    "id":158,
    "principal":"Huatabampo",
    "secundario":"Eje 1 Pte. Av. Cuauhtémoc",
    "referencia":"Frente a entrada del Metro centro Médico",
    "colonia":"Roma Sur",
    "delegacion":"Cuauhtémoc",
    "longitud":-99.155541,
    "latitud":19.407507,
    "nombre":"Huatabampo-Eje 1 Pte. Av. Cuauhtémoc"
  },
  {
    "id":159,
    "principal":"Huatabampo",
    "secundario":"Eje 1 Pte. Av. Cuauhtémoc",
    "referencia":"Frente a entrada del Metro Centro Médico",
    "colonia":"Roma Sur",
    "delegacion":"Cuauhtémoc",
    "longitud":-99.155373,
    "latitud":19.407517,
    "nombre":"Huatabampo-Eje 1 Pte. Av. Cuauhtémoc"
  },
  {
    "id":160,
    "principal":"Alfonso Herrera",
    "secundario":"Gabino Barreda",
    "referencia":"Frente al numero 81",
    "colonia":"San Rafael",
    "delegacion":"Cuauhtémoc",
    "longitud":-99.163455,
    "latitud":19.440252,
    "nombre":"Alfonso Herrera-Gabino Barreda"
  },
  {
    "id":161,
    "principal":"Quintana Roo",
    "secundario":"Manzanillo",
    "referencia":"Frente al número 35",
    "colonia":"Roma Sur",
    "delegacion":"Cuauhtémoc",
    "longitud":-99.164913,
    "latitud":19.405533,
    "nombre":"Quintana Roo-Manzanillo"
  },
  {
    "id":162,
    "principal":"Tehuantepec",
    "secundario":"Medellín",
    "referencia":"Frente al numero 132",
    "colonia":"Roma Sur",
    "delegacion":"Cuauhtémoc",
    "longitud":-99.162485,
    "latitud":19.404907,
    "nombre":"Tehuantepec-Medellín"
  },
  {
    "id":163,
    "principal":"Toluca",
    "secundario":"Bajío",
    "referencia":"A un costado de Edificio",
    "colonia":"Roma Sur",
    "delegacion":"Cuauhtémoc",
    "longitud":-99.15643,
    "latitud":19.405246,
    "nombre":"Toluca-Bajío"
  },
  {
    "id":164,
    "principal":"Bajío",
    "secundario":"Tlacotalpan",
    "referencia":"A un costado de SUMESA",
    "colonia":"Roma Sur",
    "delegacion":"Cuauhtémoc",
    "longitud":-99.16596,
    "latitud":19.403204,
    "nombre":"Bajío-Tlacotalpan"
  },
  {
    "id":165,
    "principal":"Bajío",
    "secundario":"Eje 2 Pte. Monterrey",
    "referencia":"Frente a Restaurant ROMA",
    "colonia":"Roma Sur",
    "delegacion":"Cuauhtémoc",
    "longitud":-99.160503,
    "latitud":19.404268,
    "nombre":"Bajío-Eje 2 Pte. Monterrey"
  },
  {
    "id":166,
    "principal":"Progreso",
    "secundario":"Cda. Antonio Maceo",
    "referencia":"Frente al Escritorio Público Santa Fé",
    "colonia":"Escandón",
    "delegacion":"Miguel Hidalgo",
    "longitud":-99.183549,
    "latitud":19.406069,
    "nombre":"Progreso-Cda. Antonio Maceo"
  },
  {
    "id":167,
    "principal":"General Salvador Alvarado",
    "secundario":"Progreso",
    "referencia":"Frente a Papelería",
    "colonia":"Escandón",
    "delegacion":"Miguel Hidalgo",
    "longitud":-99.179375,
    "latitud":19.404651,
    "nombre":"General Salvador Alvarado-Progreso"
  },
  {
    "id":168,
    "principal":"Comercio",
    "secundario":"Progreso",
    "referencia":"Al lado del Jardín Morelos",
    "colonia":"Escandón",
    "delegacion":"Miguel Hidalgo",
    "longitud":-99.1776,
    "latitud":19.403997,
    "nombre":"Comercio-Progreso"
  },
  {
    "id":169,
    "principal":"Prosperidad",
    "secundario":"Progreso",
    "referencia":"Frente a INCOMEX",
    "colonia":"Escandón",
    "delegacion":"Miguel Hidalgo",
    "longitud":-99.174934,
    "latitud":19.403019,
    "nombre":"Prosperidad-Progreso"
  },
  {
    "id":170,
    "principal":"Observatorio Oriente",
    "secundario":"Revolución",
    "referencia":"A un costado del Hotel Ermita",
    "colonia":"Escandón",
    "delegacion":"Miguel Hidalgo",
    "longitud":-99.184342,
    "latitud":19.404029,
    "nombre":"Observatorio Oriente-Revolución"
  },
  {
    "id":171,
    "principal":"Comercio",
    "secundario":"José Martí",
    "referencia":"Frente a Farmacia Similares",
    "colonia":"Escandón",
    "delegacion":"Miguel Hidalgo",
    "longitud":-99.10416,
    "latitud":19.24908,
    "nombre":"Comercio-José Martí"
  },
  {
    "id":172,
    "principal":"General Francisco Murguía",
    "secundario":"José Martí",
    "referencia":"Frente al No. 18",
    "colonia":"Escandón",
    "delegacion":"Miguel Hidalgo",
    "longitud":-99.181553,
    "latitud":19.403365,
    "nombre":"General Francisco Murguía-José Martí"
  },
  {
    "id":173,
    "principal":"Minería",
    "secundario":"José Martí",
    "referencia":"Frente a rosticería Pollos de Jalisco",
    "colonia":"Escandón",
    "delegacion":"Miguel Hidalgo",
    "longitud":-99.176398,
    "latitud":19.401682,
    "nombre":"Minería-José Martí"
  },
  {
    "id":174,
    "principal":"Joaquín García",
    "secundario":"Ignacio Manuel Altamirano",
    "referencia":"Frente al numero 39",
    "colonia":"San Rafael",
    "delegacion":"Cuauhtémoc",
    "longitud":-99.161636,
    "latitud":19.441114,
    "nombre":"Joaquín García-Ignacio Manuel Altamirano"
  },
  {
    "id":175,
    "principal":"Mutualismo",
    "secundario":"José Martí",
    "referencia":"Frente a locales de comida",
    "colonia":"Escandón",
    "delegacion":"Miguel Hidalgo",
    "longitud":-99.172645,
    "latitud":19.400806,
    "nombre":"Mutualismo-José Martí"
  },
  {
    "id":176,
    "principal":"Benjamín Hill",
    "secundario":"Maestro José Vasconcelos",
    "referencia":"Frente a estacionamiento",
    "colonia":"Hipódromo Condesa",
    "delegacion":"Cuauhtémoc",
    "longitud":-99.183086,
    "latitud":19.40923,
    "nombre":"Benjamín Hill-Maestro José Vasconcelos"
  },
  {
    "id":177,
    "principal":"Benjamín Hill",
    "secundario":"Carlos Zetina",
    "referencia":"A un costado de la Escuela Secundaria Técnica no.8",
    "colonia":"Hipódromo Condesa",
    "delegacion":"Cuauhtémoc",
    "longitud":-99.181692,
    "latitud":19.408841,
    "nombre":"Benjamín Hill-Carlos Zetina"
  },
  {
    "id":178,
    "principal":"Tamaulipas",
    "secundario":"Francisco Murguía",
    "referencia":"Frente a edificio de color amarillo",
    "colonia":"Hipódromo Condesa",
    "delegacion":"Cuauhtémoc",
    "longitud":-99.180457,
    "latitud":19.406833,
    "nombre":"Tamaulipas-Francisco Murguía"
  },
  {
    "id":179,
    "principal":"Nuevo. León",
    "secundario":"Quintana Roo",
    "referencia":"Frente a Salón Sol",
    "colonia":"Hipódromo",
    "delegacion":"Cuauhtémoc",
    "longitud":-99.171438,
    "latitud":19.404452,
    "nombre":"Nuevo. León-Quintana Roo"
  },
  {
    "id":180,
    "principal":"Quintana Roo",
    "secundario":"Villa Hermosa",
    "referencia":"Frente a estacionamiento de SAGARPA",
    "colonia":"Hipódromo",
    "delegacion":"Cuauhtémoc",
    "longitud":-99.169953,
    "latitud":19.404554,
    "nombre":"Quintana Roo-Villa Hermosa"
  },
  {
    "id":181,
    "principal":"Benjamín Franklin",
    "secundario":"Saltillo",
    "referencia":"Frente al número 173",
    "colonia":"Hipódromo",
    "delegacion":"Cuauhtémoc",
    "longitud":-99.175095,
    "latitud":19.404976,
    "nombre":"Benjamín Franklin-Saltillo"
  },
  {
    "id":182,
    "principal":"Nuevo. León",
    "secundario":"Insurgentes Sur",
    "referencia":"Frente a Gasolinera",
    "colonia":"Hipódromo",
    "delegacion":"Cuauhtémoc",
    "longitud":-99.170466,
    "latitud":19.400665,
    "nombre":"Nuevo. León-Insurgentes Sur"
  },
  {
    "id":183,
    "principal":"Gabino Barrera",
    "secundario":"Guillermo Prieto",
    "referencia":"Frente al numero 89",
    "colonia":"San Rafael",
    "delegacion":"Cuauhtémoc",
    "longitud":-99.164018,
    "latitud":19.437665,
    "nombre":"Gabino Barrera-Guillermo Prieto"
  },
  {
    "id":184,
    "principal":"General Gómez Pedraza",
    "secundario":"Gobernador Tiburcio Montiel",
    "referencia":"Frente a No. 72",
    "colonia":"San Miguel Chapultepec",
    "delegacion":"Miguel Hidalgo",
    "longitud":-99.185083,
    "latitud":19.414793,
    "nombre":"General Gómez Pedraza-Gobernador Tiburcio Montiel"
  },
  {
    "id":185,
    "principal":"General Antonio León",
    "secundario":"Gral. Pedro Antonio de los Santos",
    "referencia":"Frente al No. 18",
    "colonia":"San Miguel Chapultepec",
    "delegacion":"Miguel Hidalgo",
    "longitud":-99.182805,
    "latitud":19.412776,
    "nombre":"General Antonio León-Gral. Pedro Antonio de los Santos"
  },
  {
    "id":186,
    "principal":"Gregorio V. Gelati",
    "secundario":"Francisco Molinos del C.",
    "referencia":"Frente al No. 78 Brunchdeli",
    "colonia":"San Miguel Chapultepec",
    "delegacion":"Miguel Hidalgo",
    "longitud":-99.188751,
    "latitud":19.412489,
    "nombre":"Gregorio V. Gelati-Francisco Molinos del C."
  },
  {
    "id":187,
    "principal":"General Cano",
    "secundario":"Gobernador Gregorio V. Gelati",
    "referencia":"A un costado del 7 Eleven",
    "colonia":"San Miguel Chapultepec",
    "delegacion":"Miguel Hidalgo",
    "longitud":-99.185514,
    "latitud":19.411227,
    "nombre":"General Cano-Gobernador Gregorio V. Gelati"
  },
  {
    "id":188,
    "principal":"Gobernador Melchor Múzquiz",
    "secundario":"Gobernador Ignacio Esteva",
    "referencia":"Frente a Abarrotes \"Don Pedro\"",
    "colonia":"San Miguel Chapultepec",
    "delegacion":"Miguel Hidalgo",
    "longitud":-99.190139,
    "latitud":19.411711,
    "nombre":"Gobernador Melchor Múzquiz-Gobernador Ignacio Esteva"
  },
  {
    "id":189,
    "principal":"Gobernador Rafael Rebollar",
    "secundario":"Gobernador José Ceballos",
    "referencia":"Frente a Tintorería",
    "colonia":"San Miguel Chapultepec",
    "delegacion":"Miguel Hidalgo",
    "longitud":-99.187978,
    "latitud":19.410036,
    "nombre":"Gobernador Rafael Rebollar-Gobernador José Ceballos"
  },
  {
    "id":190,
    "principal":"General José Moran",
    "secundario":"Maestro José Vasconcelos",
    "referencia":"Frente al No. 16",
    "colonia":"San Miguel Chapultepec",
    "delegacion":"Miguel Hidalgo",
    "longitud":-99.18432,
    "latitud":19.409421,
    "nombre":"General José Moran-Maestro José Vasconcelos"
  },
  {
    "id":191,
    "principal":"Gobernador Rafael Rebollar",
    "secundario":"Gobernado Vicente Eguia",
    "referencia":"Frente a Estacionamiento",
    "colonia":"San Miguel Chapultepec",
    "delegacion":"Miguel Hidalgo",
    "longitud":-99.187953,
    "latitud":19.407904,
    "nombre":"Gobernador Rafael Rebollar-Gobernado Vicente Eguia"
  },
  {
    "id":192,
    "principal":"Rubén Darío",
    "secundario":"Reforma",
    "referencia":"Dentro de Parque",
    "colonia":"Bosque de Chapultepec",
    "delegacion":"Miguel Hidalgo",
    "longitud":-99.190755,
    "latitud":19.42592,
    "nombre":"Rubén Darío-Reforma"
  },
  {
    "id":193,
    "principal":"Rubén Darío",
    "secundario":"Reforma",
    "referencia":"Dentro de Parque",
    "colonia":"Bosque de Chapultepec",
    "delegacion":"Miguel Hidalgo",
    "longitud":-99.190733,
    "latitud":19.425907,
    "nombre":"Rubén Darío-Reforma"
  },
  {
    "id":194,
    "principal":"Circuito Mahatma Gandhi",
    "secundario":"Av. Paseo de la Reforma",
    "referencia":"Frente a parque de la amistad",
    "colonia":"Bosque de Chapultepec",
    "delegacion":"Miguel Hidalgo",
    "longitud":-99.180334,
    "latitud":19.424282,
    "nombre":"Circuito Mahatma Gandhi-Av. Paseo de la Reforma"
  },
  {
    "id":195,
    "principal":"Paseo de la Reforma",
    "secundario":"Mahatma Gandhi",
    "referencia":"Frente a Museo de Antropología",
    "colonia":"Bosque de Chapultepec",
    "delegacion":"Miguel Hidalgo",
    "longitud":-99.185181,
    "latitud":19.424858,
    "nombre":"Paseo de la Reforma-Mahatma Gandhi"
  },
  {
    "id":196,
    "principal":"Lago Tanganica",
    "secundario":"Av. Ejército Nacional",
    "referencia":"A un costado de SAM´s Club",
    "colonia":"Polanco",
    "delegacion":"Miguel Hidalgo",
    "longitud":-99.192904,
    "latitud":19.438349,
    "nombre":"Lago Tanganica-Av. Ejército Nacional"
  },
  {
    "id":197,
    "principal":"Miguel de Cervantes Saavedra",
    "secundario":"Ferrocarril de Cuernavaca",
    "referencia":"Detrás de General Motors",
    "colonia":"Ampliación Granada",
    "delegacion":"Miguel Hidalgo",
    "longitud":-99.204316,
    "latitud":19.440077,
    "nombre":"Miguel de Cervantes Saavedra-Ferrocarril de Cuernavaca"
  },
  {
    "id":198,
    "principal":"Sócrates",
    "secundario":"Av. Ejército Nacional",
    "referencia":"Frente al No. 104",
    "colonia":"Polanco",
    "delegacion":"Miguel Hidalgo",
    "longitud":-99.203888,
    "latitud":19.438168,
    "nombre":"Sócrates-Av. Ejército Nacional"
  },
  {
    "id":199,
    "principal":"Anatole France",
    "secundario":"Av. Ejército Nacional",
    "referencia":"Frente a agencia SEAT",
    "colonia":"Polanco",
    "delegacion":"Miguel Hidalgo",
    "longitud":-99.197241,
    "latitud":19.437934,
    "nombre":"Anatole France-Av. Ejército Nacional"
  },
  {
    "id":200,
    "principal":"Emerson",
    "secundario":"Av. Ejército Nacional",
    "referencia":"Frente a tacos Dos caminos",
    "colonia":"Polanco",
    "delegacion":"Miguel Hidalgo",
    "longitud":-99.188785,
    "latitud":19.437596,
    "nombre":"Emerson-Av. Ejército Nacional"
  },
  {
    "id":201,
    "principal":"Lope de Vega",
    "secundario":"Ejercito Nacional",
    "referencia":"A un costado del edificio que esta junto al No. 107",
    "colonia":"Polanco",
    "delegacion":"Miguel Hidalgo",
    "longitud":-99.187215,
    "latitud":19.437431,
    "nombre":"Lope de Vega-Ejercito Nacional"
  },
  {
    "id":202,
    "principal":"Calderón de la Barca",
    "secundario":"Av. Homero",
    "referencia":"Frente al No. 306",
    "colonia":"Polanco",
    "delegacion":"Miguel Hidalgo",
    "longitud":-99.198943,
    "latitud":19.43617,
    "nombre":"Calderón de la Barca-Av. Homero"
  },
  {
    "id":203,
    "principal":"Tennyson",
    "secundario":"Av. Homero",
    "referencia":"Frente al No. 308",
    "colonia":"Polanco",
    "delegacion":"Miguel Hidalgo",
    "longitud":-99.194832,
    "latitud":19.435985,
    "nombre":"Tennyson-Av. Homero"
  },
  {
    "id":204,
    "principal":"Temistocles",
    "secundario":"Homero",
    "referencia":"A un costado de Pediátrico",
    "colonia":"Polanco",
    "delegacion":"Miguel Hidalgo",
    "longitud":-99.19152,
    "latitud":19.435882,
    "nombre":"Temistocles-Homero"
  },
  {
    "id":205,
    "principal":"Taine",
    "secundario":"Homero",
    "referencia":"A un costado de Secretaria de Salud",
    "colonia":"Polanco",
    "delegacion":"Miguel Hidalgo",
    "longitud":-99.184713,
    "latitud":19.435525,
    "nombre":"Taine-Homero"
  },
  {
    "id":206,
    "principal":"Moliere",
    "secundario":"Av. Homero",
    "referencia":"Frente a Palacio de Hierro",
    "colonia":"Polanco",
    "delegacion":"Miguel Hidalgo",
    "longitud":-99.201419,
    "latitud":19.435798,
    "nombre":"Moliere-Av. Homero"
  },
  {
    "id":207,
    "principal":"Tasso",
    "secundario":"Homero",
    "referencia":"Atrás de la base de taxis",
    "colonia":"Polanco",
    "delegacion":"Miguel Hidalgo",
    "longitud":-99.183322,
    "latitud":19.434861,
    "nombre":"Tasso-Homero"
  },
  {
    "id":208,
    "principal":"Hesiodo",
    "secundario":"Lamartine",
    "referencia":"Atrás del Superama",
    "colonia":"Polanco",
    "delegacion":"Miguel Hidalgo",
    "longitud":-99.189835,
    "latitud":19.434182,
    "nombre":"Hesiodo-Lamartine"
  },
  {
    "id":209,
    "principal":"Solón",
    "secundario":"Horacio",
    "referencia":"A un costado de Anuncios de publicidad",
    "colonia":"Polanco",
    "delegacion":"Miguel Hidalgo",
    "longitud":-99.206359,
    "latitud":19.435478,
    "nombre":"Solón-Horacio"
  },
  {
    "id":210,
    "principal":"Eugenio Sue",
    "secundario":"Horacio",
    "referencia":"Junto al No. 208-A",
    "colonia":"Polanco",
    "delegacion":"Miguel Hidalgo",
    "longitud":-99.194091,
    "latitud":19.434076,
    "nombre":"Eugenio Sue-Horacio"
  },
  {
    "id":211,
    "principal":"Newton",
    "secundario":"Horacio",
    "referencia":"Tintorería Supreme",
    "colonia":"Polanco",
    "delegacion":"Miguel Hidalgo",
    "longitud":-99.188528,
    "latitud":19.433607,
    "nombre":"Newton-Horacio"
  },
  {
    "id":212,
    "principal":"Hegel",
    "secundario":"Horacio",
    "referencia":"A un costado del Parque",
    "colonia":"Polanco",
    "delegacion":"Miguel Hidalgo",
    "longitud":-99.188096,
    "latitud":19.433567,
    "nombre":"Hegel-Horacio"
  },
  {
    "id":213,
    "principal":"Av. Horacio",
    "secundario":"FFCC Cuernavaca",
    "referencia":"Frente al No. 1550",
    "colonia":"Polanco",
    "delegacion":"Miguel Hidalgo",
    "longitud":-99.206967,
    "latitud":19.435197,
    "nombre":"Av. Horacio-FFCC Cuernavaca"
  },
  {
    "id":214,
    "principal":"Platón",
    "secundario":"Horacio",
    "referencia":"Frente a Departamentos",
    "colonia":"Polanco",
    "delegacion":"Miguel Hidalgo",
    "longitud":-99.20322,
    "latitud":19.434353,
    "nombre":"Platón-Horacio"
  },
  {
    "id":215,
    "principal":"Edgar Alan Poe",
    "secundario":"Horacio",
    "referencia":"A un costado del No. 1114",
    "colonia":"Polanco",
    "delegacion":"Miguel Hidalgo",
    "longitud":-99.19968,
    "latitud":19.43384,
    "nombre":"Edgar Alan Poe-Horacio"
  },
  {
    "id":216,
    "principal":"Alejandro Dumas",
    "secundario":"Horacio",
    "referencia":"Junto al No. 164",
    "colonia":"Polanco",
    "delegacion":"Miguel Hidalgo",
    "longitud":-99.195746,
    "latitud":19.433419,
    "nombre":"Alejandro Dumas-Horacio"
  },
  {
    "id":217,
    "principal":"Euler",
    "secundario":"Av. Horacio",
    "referencia":"Muebles Frey",
    "colonia":"Polanco",
    "delegacion":"Miguel Hidalgo",
    "longitud":-99.183605,
    "latitud":19.432888,
    "nombre":"Euler-Av. Horacio"
  },
  {
    "id":218,
    "principal":"Hegel",
    "secundario":"Ibarbourou",
    "referencia":"Junto a Parque",
    "colonia":"Polanco",
    "delegacion":"Miguel Hidalgo",
    "longitud":-99.188033,
    "latitud":19.432451,
    "nombre":"Hegel-Ibarbourou"
  },
  {
    "id":219,
    "principal":"Esopo",
    "secundario":"FF de Cuernavaca",
    "referencia":"Frente al parque",
    "colonia":"Polanco",
    "delegacion":"Miguel Hidalgo",
    "longitud":-99.207808,
    "latitud":19.433542,
    "nombre":"Esopo-FF de Cuernavaca"
  },
  {
    "id":220,
    "principal":"Plino",
    "secundario":"Presidente Masarik",
    "referencia":"A un costado de Casa color rojo",
    "colonia":"Polanco",
    "delegacion":"Miguel Hidalgo",
    "longitud":-99.205727,
    "latitud":19.432655,
    "nombre":"Plino-Presidente Masarik"
  },
  {
    "id":221,
    "principal":"Emilio Castelar",
    "secundario":"Presidente Masarik",
    "referencia":"Junto a Tienda Louis Vuiton",
    "colonia":"Polanco",
    "delegacion":"Miguel Hidalgo",
    "longitud":-99.201565,
    "latitud":19.431799,
    "nombre":"Emilio Castelar-Presidente Masarik"
  },
  {
    "id":222,
    "principal":"Alejandro Dumas",
    "secundario":"Presidente Masarik",
    "referencia":"Frente a Regina Romero",
    "colonia":"Polanco",
    "delegacion":"Miguel Hidalgo",
    "longitud":-99.195774,
    "latitud":19.431417,
    "nombre":"Alejandro Dumas-Presidente Masarik"
  },
  {
    "id":223,
    "principal":"Newton",
    "secundario":"Presidente Masarik",
    "referencia":"Junto a Restaurant de pizzas",
    "colonia":"Polanco",
    "delegacion":"Miguel Hidalgo",
    "longitud":-99.191613,
    "latitud":19.431242,
    "nombre":"Newton-Presidente Masarik"
  },
  {
    "id":224,
    "principal":"Hegel",
    "secundario":"Presidente Masaryk",
    "referencia":"Frente a Restaurante Bar Español",
    "colonia":"Polanco",
    "delegacion":"Miguel Hidalgo",
    "longitud":-99.188065,
    "latitud":19.431255,
    "nombre":"Hegel-Presidente Masaryk"
  },
  {
    "id":225,
    "principal":"Petrarca",
    "secundario":"Presidente Masaryk",
    "referencia":"Frente a Club Med",
    "colonia":"Polanco",
    "delegacion":"Miguel Hidalgo",
    "longitud":-99.185612,
    "latitud":19.431172,
    "nombre":"Petrarca-Presidente Masaryk"
  },
  {
    "id":226,
    "principal":"Wallon",
    "secundario":"Presidente Masarik",
    "referencia":"Frente a la Plaza del taco",
    "colonia":"Polanco",
    "delegacion":"Miguel Hidalgo",
    "longitud":-99.18222,
    "latitud":19.431033,
    "nombre":"Wallon-Presidente Masarik"
  },
  {
    "id":227,
    "principal":"Campos Elíseos",
    "secundario":"Periférico",
    "referencia":"Frente a la Honda, junto a conservatorio",
    "colonia":"Polanco",
    "delegacion":"Miguel Hidalgo",
    "longitud":-99.207373,
    "latitud":19.431791,
    "nombre":"Campos Elíseos-Periférico"
  },
  {
    "id":228,
    "principal":"Campos Elíseos",
    "secundario":"Juan de Lafountaine",
    "referencia":"Frente al 231",
    "colonia":"Polanco",
    "delegacion":"Miguel Hidalgo",
    "longitud":-99.19912,
    "latitud":19.427705,
    "nombre":"Campos Elíseos-Juan de Lafountaine"
  },
  {
    "id":229,
    "principal":"Dickens",
    "secundario":"Seneca",
    "referencia":"Frente a OXXO",
    "colonia":"Polanco",
    "delegacion":"Miguel Hidalgo",
    "longitud":-99.203331,
    "latitud":19.430515,
    "nombre":"Dickens-Seneca"
  },
  {
    "id":230,
    "principal":"Edgar Alan Poe",
    "secundario":"Dickens",
    "referencia":"Frente al Reloj",
    "colonia":"Polanco",
    "delegacion":"Miguel Hidalgo",
    "longitud":-99.200074,
    "latitud":19.430098,
    "nombre":"Edgar Alan Poe-Dickens"
  },
  {
    "id":231,
    "principal":"Newton",
    "secundario":"Aristóteles",
    "referencia":"Junto al HSBC",
    "colonia":"Polanco",
    "delegacion":"Miguel Hidalgo",
    "longitud":-99.19349,
    "latitud":19.42977,
    "nombre":"Newton-Aristóteles"
  },
  {
    "id":232,
    "principal":"Hipólito Taine",
    "secundario":"Ruben Dario",
    "referencia":"A un costado de Oficinas de Bancomer",
    "colonia":"Polanco",
    "delegacion":"Miguel Hidalgo",
    "longitud":-99.185389,
    "latitud":19.42894,
    "nombre":"Hipólito Taine-Ruben Dario"
  },
  {
    "id":233,
    "principal":"Julio Verne",
    "secundario":"Luis G. Urbina",
    "referencia":"Frente a monumento Martin Luther king",
    "colonia":"Polanco",
    "delegacion":"Miguel Hidalgo",
    "longitud":-99.196965,
    "latitud":19.429314,
    "nombre":"Julio Verne-Luis G. Urbina"
  },
  {
    "id":234,
    "principal":"Tres Picos",
    "secundario":"Arquímedes",
    "referencia":"Frente a No. 15",
    "colonia":"Polanco",
    "delegacion":"Miguel Hidalgo",
    "longitud":-99.191539,
    "latitud":19.42783,
    "nombre":"Tres Picos-Arquímedes"
  },
  {
    "id":235,
    "principal":"Campos Elíseos",
    "secundario":"Moliere",
    "referencia":"Frente a Parque",
    "colonia":"Polanco",
    "delegacion":"Miguel Hidalgo",
    "longitud":-99.202181,
    "latitud":19.429332,
    "nombre":"Campos Elíseos-Moliere"
  },
  {
    "id":236,
    "principal":"Campos Elíseos",
    "secundario":"Moliere",
    "referencia":"Frente a Parque",
    "colonia":"Polanco",
    "delegacion":"Miguel Hidalgo",
    "longitud":-99.20243,
    "latitud":19.429436,
    "nombre":"Campos Elíseos-Moliere"
  },
  {
    "id":237,
    "principal":"Andrés Bello",
    "secundario":"Elliot",
    "referencia":"Frente a Hotel Presidente",
    "colonia":"Polanco",
    "delegacion":"Miguel Hidalgo",
    "longitud":-99.193986,
    "latitud":19.426744,
    "nombre":"Andrés Bello-Elliot"
  },
  {
    "id":238,
    "principal":"Andrés Bello",
    "secundario":"Elliot",
    "referencia":"Frente al Hotel Presidente",
    "colonia":"Polanco",
    "delegacion":"Miguel Hidalgo",
    "longitud":-99.193752,
    "latitud":19.426765,
    "nombre":"Andrés Bello-Elliot"
  },
  {
    "id":239,
    "principal":"Rincón del bosque",
    "secundario":"Ruben Dario",
    "referencia":"Frente a casa con enredadera",
    "colonia":"Polanco",
    "delegacion":"Miguel Hidalgo",
    "longitud":-99.181355,
    "latitud":19.430153,
    "nombre":"Rincón del bosque-Ruben Dario"
  },
  {
    "id":240,
    "principal":"Ejercito Nacional",
    "secundario":"F.C. de Cuernavaca",
    "referencia":"Dentro de camellón",
    "colonia":"Polanco",
    "delegacion":"Miguel Hidalgo",
    "longitud":-99.206298,
    "latitud":19.438551,
    "nombre":"Ejercito Nacional-F.C. de Cuernavaca"
  },
  {
    "id":241,
    "principal":"Ejercito Nacional",
    "secundario":"Juan Vázquez de la Mella",
    "referencia":"Dentro de camellón",
    "colonia":"Polanco",
    "delegacion":"Miguel Hidalgo",
    "longitud":-99.207577,
    "latitud":19.438616,
    "nombre":"Ejercito Nacional-Juan Vázquez de la Mella"
  },
  {
    "id":242,
    "principal":"Miguel de Cervantes Saavedra",
    "secundario":"Pról. Moliere",
    "referencia":"Frente a jardineras de concreto",
    "colonia":"Granada",
    "delegacion":"Miguel Hidalgo",
    "longitud":-99.20105,
    "latitud":19.440344,
    "nombre":"Miguel de Cervantes Saavedra-Pról. Moliere"
  },
  {
    "id":243,
    "principal":"Miguel de Cervantes Saavedra",
    "secundario":"Lago Filt",
    "referencia":"Frente al Sanatorio Español",
    "colonia":"Granada",
    "delegacion":"Miguel Hidalgo",
    "longitud":-99.196712,
    "latitud":19.440839,
    "nombre":"Miguel de Cervantes Saavedra-Lago Filt"
  },
  {
    "id":244,
    "principal":"Miguel de Cervantes Saavedra",
    "secundario":"Lago Victoria",
    "referencia":"Frente a la Óptica Devlyn",
    "colonia":"Granada",
    "delegacion":"Miguel Hidalgo",
    "longitud":-99.193315,
    "latitud":19.440885,
    "nombre":"Miguel de Cervantes Saavedra-Lago Victoria"
  },
  {
    "id":245,
    "principal":"Lago Onega",
    "secundario":"Av. Ejercito Nacional",
    "referencia":"Frente a Bancomer",
    "colonia":"Granada",
    "delegacion":"Miguel Hidalgo",
    "longitud":-99.190368,
    "latitud":19.438165,
    "nombre":"Lago Onega-Av. Ejercito Nacional"
  },
  {
    "id":246,
    "principal":"Leibnitz",
    "secundario":"Thiers",
    "referencia":"Frente al No. 241",
    "colonia":"Anzures",
    "delegacion":"Miguel Hidalgo",
    "longitud":-99.179835,
    "latitud":19.434147,
    "nombre":"Leibnitz-Thiers"
  },
  {
    "id":247,
    "principal":"Herschel",
    "secundario":"Rousseau",
    "referencia":"Atrás de casa Azul",
    "colonia":"Anzures",
    "delegacion":"Miguel Hidalgo",
    "longitud":-99.180565,
    "latitud":19.432102,
    "nombre":"Herschel-Rousseau"
  },
  {
    "id":248,
    "principal":"Shakespeare",
    "secundario":"Lafayette",
    "referencia":"Del lado contrario al Modulo de Seguridad Pública",
    "colonia":"Anzures",
    "delegacion":"Miguel Hidalgo",
    "longitud":-99.177399,
    "latitud":19.43175,
    "nombre":"Shakespeare-Lafayette"
  },
  {
    "id":249,
    "principal":"Shakespeare",
    "secundario":"Darwin",
    "referencia":"Frente a fachada Gris",
    "colonia":"Anzures",
    "delegacion":"Miguel Hidalgo",
    "longitud":-99.177569,
    "latitud":19.429877,
    "nombre":"Shakespeare-Darwin"
  },
  {
    "id":250,
    "principal":"Darwin",
    "secundario":"Mariano Escobedo",
    "referencia":"Frente a Seven 7",
    "colonia":"Anzures",
    "delegacion":"Miguel Hidalgo",
    "longitud":-99.17966,
    "latitud":19.429057,
    "nombre":"Darwin-Mariano Escobedo"
  },
  {
    "id":251,
    "principal":"Goethe",
    "secundario":"Darwin",
    "referencia":"Frente a Dryclean USA",
    "colonia":"Anzures",
    "delegacion":"Miguel Hidalgo",
    "longitud":-99.17538,
    "latitud":19.429261,
    "nombre":"Goethe-Darwin"
  },
  {
    "id":252,
    "principal":"Víctor Hugo",
    "secundario":"Shakespeare",
    "referencia":"Frente a jardinera",
    "colonia":"Anzures",
    "delegacion":"Miguel Hidalgo",
    "longitud":-99.17702,
    "latitud":19.427575,
    "nombre":"Víctor Hugo-Shakespeare"
  },
  {
    "id":253,
    "principal":"Dante",
    "secundario":"Tolstoi",
    "referencia":"Frente al Estacionamiento No. 13",
    "colonia":"Anzures",
    "delegacion":"Miguel Hidalgo",
    "longitud":-99.177924,
    "latitud":19.425835,
    "nombre":"Dante-Tolstoi"
  },
  {
    "id":254,
    "principal":"Alfonso Herrera",
    "secundario":"Miguel Schultz",
    "referencia":"Atrás de Escuela",
    "colonia":"San Rafael",
    "delegacion":"Cuauhtémoc",
    "longitud":-99.160074,
    "latitud":19.439347,
    "nombre":"Alfonso Herrera-Miguel Schultz"
  },
  {
    "id":255,
    "principal":"Jose Rosas Moreno",
    "secundario":"Guillermo Prieto",
    "referencia":"Frente del Minisúper Dorado",
    "colonia":"San Rafael",
    "delegacion":"Cuauhtémoc",
    "longitud":-99.165099,
    "latitud":19.43788,
    "nombre":"Jose Rosas Moreno-Guillermo Prieto"
  },
  {
    "id":256,
    "principal":"Gómez Farías",
    "secundario":"Sadi Carnot",
    "referencia":"Frente a la UVM",
    "colonia":"San Rafael",
    "delegacion":"Cuauhtémoc",
    "longitud":-99.158313,
    "latitud":19.437167,
    "nombre":"Gómez Farías-Sadi Carnot"
  },
  {
    "id":257,
    "principal":"Manuel Maria Contreras",
    "secundario":"Villalongín",
    "referencia":"A un costado de Concamin",
    "colonia":"San Rafael",
    "delegacion":"Cuauhtémoc",
    "longitud":-99.166223,
    "latitud":19.433803,
    "nombre":"Manuel Maria Contreras-Villalongín"
  },
  {
    "id":259,
    "principal":"Tomás Alva Edison",
    "secundario":"Ponciano Arriaga",
    "referencia":"Frente a Hotel Edison",
    "colonia":"Tabacalera",
    "delegacion":"Cuauhtémoc",
    "longitud":-99.15468,
    "latitud":19.437569,
    "nombre":"Tomás Alva Edison-Ponciano Arriaga"
  },
  {
    "id":260,
    "principal":"Donato Guerra",
    "secundario":"Humboldt",
    "referencia":"Frente al Centro Comercial de China",
    "colonia":"Centro",
    "delegacion":"Cuauhtémoc",
    "longitud":-99.14857,
    "latitud":19.433013,
    "nombre":"Donato Guerra-Humboldt"
  },
  {
    "id":261,
    "principal":"Paseo de la Reforma",
    "secundario":"Río Ródano",
    "referencia":"Frente a Torre Mayor",
    "colonia":"Cuauhtémoc",
    "delegacion":"Cuauhtémoc",
    "longitud":-99.175196,
    "latitud":19.423704,
    "nombre":"Paseo de la Reforma-Río Ródano"
  },
  {
    "id":262,
    "principal":"Republica de Cuba",
    "secundario":"Republica de Brasil",
    "referencia":"Frente a Plaza Santo Domingo",
    "colonia":"Centro",
    "delegacion":"Cuauhtémoc",
    "longitud":-99.133952,
    "latitud":19.436931,
    "nombre":"Republica de Cuba-Republica de Brasil"
  },
  {
    "id":267,
    "principal":"Circuito Interior",
    "secundario":"Juan Escutia",
    "referencia":"Bajo el puente de Circuito",
    "colonia":"Condesa",
    "delegacion":"Cuauhtémoc",
    "longitud":-99.179143,
    "latitud":19.416727,
    "nombre":"Circuito Interior-Juan Escutia"
  },
  {
    "id":268,
    "principal":"Carlos J. Meneses",
    "secundario":"Av. Jesús García",
    "referencia":"A un costado de Wal-Mart",
    "colonia":"Buenavista",
    "delegacion":"Cuauhtémoc",
    "longitud":-99.153082,
    "latitud":19.444272,
    "nombre":"Carlos J. Meneses-Av. Jesús García"
  },
  {
    "id":269,
    "principal":"Av. Jesús García",
    "secundario":"Carlos J. Meneses",
    "referencia":"A un costado del Deportivo Cuauhtémoc",
    "colonia":"Buenavista",
    "delegacion":"Cuauhtémoc",
    "longitud":-99.152187,
    "latitud":19.444031,
    "nombre":"Av. Jesús García-Carlos J. Meneses"
  },
  {
    "id":270,
    "principal":"Carlos J. Meneses",
    "secundario":"Av. Jesús García",
    "referencia":"A un costado de Wal-Mart",
    "colonia":"Buenavista",
    "delegacion":"Cuauhtémoc",
    "longitud":-99.15264,
    "latitud":19.444199,
    "nombre":"Carlos J. Meneses-Av. Jesús García"
  },
  {
    "id":271,
    "principal":"Carlos J. Meneses",
    "secundario":"Av. Jesús García",
    "referencia":"A un costado de Wal-Mart",
    "colonia":"Buenavista",
    "delegacion":"Cuauhtémoc",
    "longitud":-99.152894,
    "latitud":19.444244,
    "nombre":"Carlos J. Meneses-Av. Jesús García"
  },
  {
    "id":272,
    "principal":"Jesús García",
    "secundario":"Héroes Ferrocarrileros",
    "referencia":"Frente a Delegación Cuauhtémoc",
    "colonia":"Buenavista",
    "delegacion":"Cuauhtémoc",
    "longitud":-99.152265,
    "latitud":19.440839,
    "nombre":"Jesús García-Héroes Ferrocarrileros"
  },
  {
    "id":273,
    "principal":"Jesús García",
    "secundario":"H. Ferrocarrileros",
    "referencia":"A un costado del CEN del PRI",
    "colonia":"Buenavista",
    "delegacion":"Cuauhtémoc",
    "longitud":-99.152935,
    "latitud":19.440985,
    "nombre":"Jesús García-H. Ferrocarrileros"
  },
  {
    "id":274,
    "principal":"Sadi Carnot",
    "secundario":"Gómez Farías",
    "referencia":"Frente a UVM",
    "colonia":"San Rafael",
    "delegacion":"Cuauhtémoc",
    "longitud":-99.158425,
    "latitud":19.436274,
    "nombre":"Sadi Carnot-Gómez Farías"
  },
  {
    "id":275,
    "principal":"De La República",
    "secundario":"Ponciano Arriaga",
    "referencia":"Frente al Frontón México",
    "colonia":"Tabacalera",
    "delegacion":"Cuauhtémoc",
    "longitud":-99.153865,
    "latitud":19.436764,
    "nombre":"De La República-Ponciano Arriaga"
  }
]